{
	"organizations": [
		{
			"id":1,
			"name": "kohtaus",
			"info_url": "https://www.kohtaus.info/",
			"location": {
				"lat": 60.194984,
				"lon": 24.959127
			},
			"address": {
				"street_address": "Inarintie 35",
				"postal_code": "00550",
				"locality": "Helsinki"
			},
			"description": {
				"body": "Ammatillinen Kela-kuntoutus."
			},
			"opening_hours_today": {
				"opens": "10:00",
				"closes": "18:00"
			}
		},
		{
			"id":2,
			"name": "Nuoret",
			"info_url": "https://www.kohtaus.info/",
			"location": {
				"lat": 60.194984,
				"lon": 24.959127
			},
			"address": {
				"street_address": "Inarintie 35",
				"postal_code": "00550",
				"locality": "Helsinki"
			},
			"description": {
				"body": "Nuorten seurahuone"
			},
			"opening_hours_today": {
				"opens": "10:00",
				"closes": "18:00"
			}
		},
		{
			"id":3,
			"name": "Silta",
			"info_url": "https://www.kohtaus.info/",
			"location": {
				"lat": 60.194984,
				"lon": 24.959127
			},
			"address": {
				"street_address": "Inarintie 35",
				"postal_code": "00550",
				"locality": "Helsinki"
			},
			"description": {
				"body": "Ammatillinen Kela-kuntoutus."
			},
			"opening_hours_today": {
				"opens": "10:00",
				"closes": "18:00"
			}
		},
		{
			"id":4,
			"name": "Nuotti",
			"info_url": "https://www.kohtaus.info/",
			"location": {
				"lat": 60.194984,
				"lon": 24.959127
			},
			"address": {
				"street_address": "Inarintie 35",
				"postal_code": "00550",
				"locality": "Helsinki"
			},
			"description": {
				"body": "Ammatillinen Kela-kuntoutus."
			},
			"opening_hours_today": {
				"opens": "10:00",
				"closes": "18:00"
			}
		}
	]
}